country,name,keyword,latitude,longitude
역사,역사,역사,역사,역사
브라질,이과주,먹방과 함께하는 여행,-7.2589,-35.9762
브라질,리오데자네이로,먹방은 최고야,-22.9068,-43.1729
브라질,살바도르,역사여행을 해보자,-12.9714,-38.5014
브라질,아마존우림,자연과함께 탐방을 해볼까,-3.4653,-62.2159
브라질,부즈이오스,SNS로 인기 끌자,-23.1896,-45.884
브라질,포르토세구로,역사여행은 재밌어,-30.0346,-51.2177
브라질,피레오폴리스,문화를 탐방하자,-16.409,-49.0438
브라질,벨루호리손티,좀 배부르다.. 먹방 최고,-3.7184,-38.5433
브라질,마나우스,문화탐방은 재밌어,-3.1019,-60.025
브라질,비치파크,자연은 신기해,-3.7169,-38.5406